{
"type": "FeatureCollection",
"crs": { "type": "name", "properties": { "name": "urn:ogc:def:crs:OGC:1.3:CRS84" } },
                                                                                                                                  
"features": [
{ "type": "Feature", "properties": { "Name": "Acorn-Acorn Industrial", "description": null, "timestamp": null, "begin": null, "end": null, "altitudeMode": null, "tessellate": -1, "extrude": 0, "visibility": -1, "drawOrder": null, "icon": null }, "geometry": { "type": "Point", "coordinates": [ -122.308304230982998, 37.801741401695402, 0.0 ] } },
{ "type": "Feature", "properties": { "Name": "Adams Point", "description": null, "timestamp": null, "begin": null, "end": null, "altitudeMode": null, "tessellate": -1, "extrude": 0, "visibility": -1, "drawOrder": null, "icon": null }, "geometry": { "type": "Point", "coordinates": [ -122.254278178741998, 37.811880026592398, 0.0 ] } },
{ "type": "Feature", "properties": { "Name": "Allendale", "description": null, "timestamp": null, "begin": null, "end": null, "altitudeMode": null, "tessellate": -1, "extrude": 0, "visibility": -1, "drawOrder": null, "icon": null }, "geometry": { "type": "Point", "coordinates": [ -122.203491535647998, 37.787226661750701, 0.0 ] } },
{ "type": "Feature", "properties": { "Name": "Arrowhead Marsh", "description": null, "timestamp": null, "begin": null, "end": null, "altitudeMode": null, "tessellate": -1, "extrude": 0, "visibility": -1, "drawOrder": null, "icon": null }, "geometry": { "type": "Point", "coordinates": [ -122.220305279225002, 37.763043787467304, 0.0 ] } },
{ "type": "Feature", "properties": { "Name": "Arroyo Viejo", "description": null, "timestamp": null, "begin": null, "end": null, "altitudeMode": null, "tessellate": -1, "extrude": 0, "visibility": -1, "drawOrder": null, "icon": null }, "geometry": { "type": "Point", "coordinates": [ -122.178447914236997, 37.760454211617599, 0.0 ] } },
{ "type": "Feature", "properties": { "Name": "Bancroft Business-Havenscourt", "description": null, "timestamp": null, "begin": null, "end": null, "altitudeMode": null, "tessellate": -1, "extrude": 0, "visibility": -1, "drawOrder": null, "icon": null }, "geometry": { "type": "Point", "coordinates": [ -122.185047384157997, 37.767366559638901, 0.0 ] } },
{ "type": "Feature", "properties": { "Name": "Bartlett", "description": null, "timestamp": null, "begin": null, "end": null, "altitudeMode": null, "tessellate": -1, "extrude": 0, "visibility": -1, "drawOrder": null, "icon": null }, "geometry": { "type": "Point", "coordinates": [ -122.212714456650005, 37.788201156329897, 0.0 ] } },
{ "type": "Feature", "properties": { "Name": "Bella Vista", "description": null, "timestamp": null, "begin": null, "end": null, "altitudeMode": null, "tessellate": -1, "extrude": 0, "visibility": -1, "drawOrder": null, "icon": null }, "geometry": { "type": "Point", "coordinates": [ -122.237548045164999, 37.799598821240103, 0.0 ] } },
{ "type": "Feature", "properties": { "Name": "Brookfield Village", "description": null, "timestamp": null, "begin": null, "end": null, "altitudeMode": null, "tessellate": -1, "extrude": 0, "visibility": -1, "drawOrder": null, "icon": null }, "geometry": { "type": "Point", "coordinates": [ -122.186158336811005, 37.734291712851302, 0.0 ] } },
{ "type": "Feature", "properties": { "Name": "Bushrod", "description": null, "timestamp": null, "begin": null, "end": null, "altitudeMode": null, "tessellate": -1, "extrude": 0, "visibility": -1, "drawOrder": null, "icon": null }, "geometry": { "type": "Point", "coordinates": [ -122.265685347469002, 37.8451172242873, 0.0 ] } },
{ "type": "Feature", "properties": { "Name": "Caballo Hills", "description": null, "timestamp": null, "begin": null, "end": null, "altitudeMode": null, "tessellate": -1, "extrude": 0, "visibility": -1, "drawOrder": null, "icon": null }, "geometry": { "type": "Point", "coordinates": [ -122.160418899256996, 37.783648841129803, 0.0 ] } },
{ "type": "Feature", "properties": { "Name": "Castlemont", "description": null, "timestamp": null, "begin": null, "end": null, "altitudeMode": null, "tessellate": -1, "extrude": 0, "visibility": -1, "drawOrder": null, "icon": null }, "geometry": { "type": "Point", "coordinates": [ -122.165123616673, 37.755686512527603, 0.0 ] } },
{ "type": "Feature", "properties": { "Name": "Chabot Park", "description": null, "timestamp": null, "begin": null, "end": null, "altitudeMode": null, "tessellate": -1, "extrude": 0, "visibility": -1, "drawOrder": null, "icon": null }, "geometry": { "type": "Point", "coordinates": [ -122.128426230803001, 37.7429576035182, 0.0 ] } },
{ "type": "Feature", "properties": { "Name": "Chinatown", "description": null, "timestamp": null, "begin": null, "end": null, "altitudeMode": null, "tessellate": -1, "extrude": 0, "visibility": -1, "drawOrder": null, "icon": null }, "geometry": { "type": "Point", "coordinates": [ -122.269576922918006, 37.7988785588743, 0.0 ] } },
{ "type": "Feature", "properties": { "Name": "Civic Center", "description": null, "timestamp": null, "begin": null, "end": null, "altitudeMode": null, "tessellate": -1, "extrude": 0, "visibility": -1, "drawOrder": null, "icon": null }, "geometry": { "type": "Point", "coordinates": [ -122.264614682084002, 37.800002277058901, 0.0 ] } },
{ "type": "Feature", "properties": { "Name": "Claremont", "description": null, "timestamp": null, "begin": null, "end": null, "altitudeMode": null, "tessellate": -1, "extrude": 0, "visibility": -1, "drawOrder": null, "icon": null }, "geometry": { "type": "Point", "coordinates": [ -122.227888097442005, 37.860817284718102, 0.0 ] } },
{ "type": "Feature", "properties": { "Name": "Clawson", "description": null, "timestamp": null, "begin": null, "end": null, "altitudeMode": null, "tessellate": -1, "extrude": 0, "visibility": -1, "drawOrder": null, "icon": null }, "geometry": { "type": "Point", "coordinates": [ -122.286413137926999, 37.824454855438198, 0.0 ] } },
{ "type": "Feature", "properties": { "Name": "Cleveland Heights", "description": null, "timestamp": null, "begin": null, "end": null, "altitudeMode": null, "tessellate": -1, "extrude": 0, "visibility": -1, "drawOrder": null, "icon": null }, "geometry": { "type": "Point", "coordinates": [ -122.244822797585002, 37.804731631028702, 0.0 ] } },
{ "type": "Feature", "properties": { "Name": "Clinton", "description": null, "timestamp": null, "begin": null, "end": null, "altitudeMode": null, "tessellate": -1, "extrude": 0, "visibility": -1, "drawOrder": null, "icon": null }, "geometry": { "type": "Point", "coordinates": [ -122.246233070724003, 37.795380499193598, 0.0 ] } },
{ "type": "Feature", "properties": { "Name": "Coliseum", "description": null, "timestamp": null, "begin": null, "end": null, "altitudeMode": null, "tessellate": -1, "extrude": 0, "visibility": -1, "drawOrder": null, "icon": null }, "geometry": { "type": "Point", "coordinates": [ -122.195135946923997, 37.757407681863597, 0.0 ] } },
{ "type": "Feature", "properties": { "Name": "Coliseum Industrial", "description": null, "timestamp": null, "begin": null, "end": null, "altitudeMode": null, "tessellate": -1, "extrude": 0, "visibility": -1, "drawOrder": null, "icon": null }, "geometry": { "type": "Point", "coordinates": [ -122.202339014814996, 37.7524774326601, 0.0 ] } },
{ "type": "Feature", "properties": { "Name": "Columbia Gardens", "description": null, "timestamp": null, "begin": null, "end": null, "altitudeMode": null, "tessellate": -1, "extrude": 0, "visibility": -1, "drawOrder": null, "icon": null }, "geometry": { "type": "Point", "coordinates": [ -122.192570262935007, 37.731788098939099, 0.0 ] } },
{ "type": "Feature", "properties": { "Name": "Cox", "description": null, "timestamp": null, "begin": null, "end": null, "altitudeMode": null, "tessellate": -1, "extrude": 0, "visibility": -1, "drawOrder": null, "icon": null }, "geometry": { "type": "Point", "coordinates": [ -122.168686031830006, 37.748725371120202, 0.0 ] } },
{ "type": "Feature", "properties": { "Name": "Crestmont", "description": null, "timestamp": null, "begin": null, "end": null, "altitudeMode": null, "tessellate": -1, "extrude": 0, "visibility": -1, "drawOrder": null, "icon": null }, "geometry": { "type": "Point", "coordinates": [ -122.177553306351001, 37.799199031997603, 0.0 ] } },
{ "type": "Feature", "properties": { "Name": "Crocker Highland", "description": null, "timestamp": null, "begin": null, "end": null, "altitudeMode": null, "tessellate": -1, "extrude": 0, "visibility": -1, "drawOrder": null, "icon": null }, "geometry": { "type": "Point", "coordinates": [ -122.228631933732004, 37.812165877584597, 0.0 ] } },
{ "type": "Feature", "properties": { "Name": "Dimond", "description": null, "timestamp": null, "begin": null, "end": null, "altitudeMode": null, "tessellate": -1, "extrude": 0, "visibility": -1, "drawOrder": null, "icon": null }, "geometry": { "type": "Point", "coordinates": [ -122.210104391868001, 37.797610715701502, 0.0 ] } },
{ "type": "Feature", "properties": { "Name": "Downtown", "description": null, "timestamp": null, "begin": null, "end": null, "altitudeMode": null, "tessellate": -1, "extrude": 0, "visibility": -1, "drawOrder": null, "icon": null }, "geometry": { "type": "Point", "coordinates": [ -122.269935265694002, 37.806662880633297, 0.0 ] } },
{ "type": "Feature", "properties": { "Name": "Durant Manor", "description": null, "timestamp": null, "begin": null, "end": null, "altitudeMode": null, "tessellate": -1, "extrude": 0, "visibility": -1, "drawOrder": null, "icon": null }, "geometry": { "type": "Point", "coordinates": [ -122.161110453101998, 37.739896163397198, 0.0 ] } },
{ "type": "Feature", "properties": { "Name": "East Peralta", "description": null, "timestamp": null, "begin": null, "end": null, "altitudeMode": null, "tessellate": -1, "extrude": 0, "visibility": -1, "drawOrder": null, "icon": null }, "geometry": { "type": "Point", "coordinates": [ -122.247527931300993, 37.787520839311597, 0.0 ] } },
{ "type": "Feature", "properties": { "Name": "Eastmont", "description": null, "timestamp": null, "begin": null, "end": null, "altitudeMode": null, "tessellate": -1, "extrude": 0, "visibility": -1, "drawOrder": null, "icon": null }, "geometry": { "type": "Point", "coordinates": [ -122.170835349160001, 37.764635319620801, 0.0 ] } },
{ "type": "Feature", "properties": { "Name": "Eastmont Hills", "description": null, "timestamp": null, "begin": null, "end": null, "altitudeMode": null, "tessellate": -1, "extrude": 0, "visibility": -1, "drawOrder": null, "icon": null }, "geometry": { "type": "Point", "coordinates": [ -122.163471781007004, 37.7698018934136, 0.0 ] } },
{ "type": "Feature", "properties": { "Name": "Elmhurst Park", "description": null, "timestamp": null, "begin": null, "end": null, "altitudeMode": null, "tessellate": -1, "extrude": 0, "visibility": -1, "drawOrder": null, "icon": null }, "geometry": { "type": "Point", "coordinates": [ -122.179733023908, 37.743477869625899, 0.0 ] } },
{ "type": "Feature", "properties": { "Name": "Fairfax", "description": null, "timestamp": null, "begin": null, "end": null, "altitudeMode": null, "tessellate": -1, "extrude": 0, "visibility": -1, "drawOrder": null, "icon": null }, "geometry": { "type": "Point", "coordinates": [ -122.201773011197005, 37.776898277714501, 0.0 ] } },
{ "type": "Feature", "properties": { "Name": "Fairfax Business-Wentworth-Holland", "description": null, "timestamp": null, "begin": null, "end": null, "altitudeMode": null, "tessellate": -1, "extrude": 0, "visibility": -1, "drawOrder": null, "icon": null }, "geometry": { "type": "Point", "coordinates": [ -122.202359611988001, 37.7704773108551, 0.0 ] } },
{ "type": "Feature", "properties": { "Name": "Fairview Park", "description": null, "timestamp": null, "begin": null, "end": null, "altitudeMode": null, "tessellate": -1, "extrude": 0, "visibility": -1, "drawOrder": null, "icon": null }, "geometry": { "type": "Point", "coordinates": [ -122.257487609476001, 37.848007028350096, 0.0 ] } },
{ "type": "Feature", "properties": { "Name": "Fitchburg", "description": null, "timestamp": null, "begin": null, "end": null, "altitudeMode": null, "tessellate": -1, "extrude": 0, "visibility": -1, "drawOrder": null, "icon": null }, "geometry": { "type": "Point", "coordinates": [ -122.188843420984, 37.754176104815997, 0.0 ] } },
{ "type": "Feature", "properties": { "Name": "Foothill Square", "description": null, "timestamp": null, "begin": null, "end": null, "altitudeMode": null, "tessellate": -1, "extrude": 0, "visibility": -1, "drawOrder": null, "icon": null }, "geometry": { "type": "Point", "coordinates": [ -122.151681987819998, 37.745788338704401, 0.0 ] } },
{ "type": "Feature", "properties": { "Name": "Forestland", "description": null, "timestamp": null, "begin": null, "end": null, "altitudeMode": null, "tessellate": -1, "extrude": 0, "visibility": -1, "drawOrder": null, "icon": null }, "geometry": { "type": "Point", "coordinates": [ -122.200217391474993, 37.842906373701403, 0.0 ] } },
{ "type": "Feature", "properties": { "Name": "Fremont", "description": null, "timestamp": null, "begin": null, "end": null, "altitudeMode": null, "tessellate": -1, "extrude": 0, "visibility": -1, "drawOrder": null, "icon": null }, "geometry": { "type": "Point", "coordinates": [ -122.208543336087999, 37.774054914046197, 0.0 ] } },
{ "type": "Feature", "properties": { "Name": "Frick", "description": null, "timestamp": null, "begin": null, "end": null, "altitudeMode": null, "tessellate": -1, "extrude": 0, "visibility": -1, "drawOrder": null, "icon": null }, "geometry": { "type": "Point", "coordinates": [ -122.185244265780995, 37.773182999982303, 0.0 ] } },
{ "type": "Feature", "properties": { "Name": "Fruitvale Station", "description": null, "timestamp": null, "begin": null, "end": null, "altitudeMode": null, "tessellate": -1, "extrude": 0, "visibility": -1, "drawOrder": null, "icon": null }, "geometry": { "type": "Point", "coordinates": [ -122.222735566758004, 37.773582110165698, 0.0 ] } },
{ "type": "Feature", "properties": { "Name": "Gaskill", "description": null, "timestamp": null, "begin": null, "end": null, "altitudeMode": null, "tessellate": -1, "extrude": 0, "visibility": -1, "drawOrder": null, "icon": null }, "geometry": { "type": "Point", "coordinates": [ -122.279332371942004, 37.839607056542803, 0.0 ] } },
{ "type": "Feature", "properties": { "Name": "Glen Highlands", "description": null, "timestamp": null, "begin": null, "end": null, "altitudeMode": null, "tessellate": -1, "extrude": 0, "visibility": -1, "drawOrder": null, "icon": null }, "geometry": { "type": "Point", "coordinates": [ -122.219546087856003, 37.842059843621897, 0.0 ] } },
{ "type": "Feature", "properties": { "Name": "Glenview", "description": null, "timestamp": null, "begin": null, "end": null, "altitudeMode": null, "tessellate": -1, "extrude": 0, "visibility": -1, "drawOrder": null, "icon": null }, "geometry": { "type": "Point", "coordinates": [ -122.221304826709002, 37.805709946264798, 0.0 ] } },
{ "type": "Feature", "properties": { "Name": "Golden Gate", "description": null, "timestamp": null, "begin": null, "end": null, "altitudeMode": null, "tessellate": -1, "extrude": 0, "visibility": -1, "drawOrder": null, "icon": null }, "geometry": { "type": "Point", "coordinates": [ -122.285321173347, 37.843500458106099, 0.0 ] } },
{ "type": "Feature", "properties": { "Name": "Golf Links", "description": null, "timestamp": null, "begin": null, "end": null, "altitudeMode": null, "tessellate": -1, "extrude": 0, "visibility": -1, "drawOrder": null, "icon": null }, "geometry": { "type": "Point", "coordinates": [ -122.154469025240999, 37.762177196144698, 0.0 ] } },
{ "type": "Feature", "properties": { "Name": "Grand Lake", "description": null, "timestamp": null, "begin": null, "end": null, "altitudeMode": null, "tessellate": -1, "extrude": 0, "visibility": -1, "drawOrder": null, "icon": null }, "geometry": { "type": "Point", "coordinates": [ -122.249143901024993, 37.817618388819902, 0.0 ] } },
{ "type": "Feature", "properties": { "Name": "Harrington", "description": null, "timestamp": null, "begin": null, "end": null, "altitudeMode": null, "tessellate": -1, "extrude": 0, "visibility": -1, "drawOrder": null, "icon": null }, "geometry": { "type": "Point", "coordinates": [ -122.213696826393999, 37.783613642518702, 0.0 ] } },
{ "type": "Feature", "properties": { "Name": "Hawthorne", "description": null, "timestamp": null, "begin": null, "end": null, "altitudeMode": null, "tessellate": -1, "extrude": 0, "visibility": -1, "drawOrder": null, "icon": null }, "geometry": { "type": "Point", "coordinates": [ -122.229028099432995, 37.780325429459701, 0.0 ] } },
{ "type": "Feature", "properties": { "Name": "Hegenberger", "description": null, "timestamp": null, "begin": null, "end": null, "altitudeMode": null, "tessellate": -1, "extrude": 0, "visibility": -1, "drawOrder": null, "icon": null }, "geometry": { "type": "Point", "coordinates": [ -122.186105319893002, 37.762709989823897, 0.0 ] } },
{ "type": "Feature", "properties": { "Name": "Highland", "description": null, "timestamp": null, "begin": null, "end": null, "altitudeMode": null, "tessellate": -1, "extrude": 0, "visibility": -1, "drawOrder": null, "icon": null }, "geometry": { "type": "Point", "coordinates": [ -122.181172099386004, 37.748310133784102, 0.0 ] } },
{ "type": "Feature", "properties": { "Name": "Highland Terrace", "description": null, "timestamp": null, "begin": null, "end": null, "altitudeMode": null, "tessellate": -1, "extrude": 0, "visibility": -1, "drawOrder": null, "icon": null }, "geometry": { "type": "Point", "coordinates": [ -122.233752001794002, 37.792636731727697, 0.0 ] } },
{ "type": "Feature", "properties": { "Name": "Hiller Highlands", "description": null, "timestamp": null, "begin": null, "end": null, "altitudeMode": null, "tessellate": -1, "extrude": 0, "visibility": -1, "drawOrder": null, "icon": null }, "geometry": { "type": "Point", "coordinates": [ -122.227740691516999, 37.852281230796599, 0.0 ] } },
{ "type": "Feature", "properties": { "Name": "Hoover-Foster", "description": null, "timestamp": null, "begin": null, "end": null, "altitudeMode": null, "tessellate": -1, "extrude": 0, "visibility": -1, "drawOrder": null, "icon": null }, "geometry": { "type": "Point", "coordinates": [ -122.273313118939001, 37.820688152854103, 0.0 ] } },
{ "type": "Feature", "properties": { "Name": "Iveywood", "description": null, "timestamp": null, "begin": null, "end": null, "altitudeMode": null, "tessellate": -1, "extrude": 0, "visibility": -1, "drawOrder": null, "icon": null }, "geometry": { "type": "Point", "coordinates": [ -122.164865898817993, 37.743835727853998, 0.0 ] } },
{ "type": "Feature", "properties": { "Name": "Ivy Hill", "description": null, "timestamp": null, "begin": null, "end": null, "altitudeMode": null, "tessellate": -1, "extrude": 0, "visibility": -1, "drawOrder": null, "icon": null }, "geometry": { "type": "Point", "coordinates": [ -122.244726842817002, 37.800111534659599, 0.0 ] } },
{ "type": "Feature", "properties": { "Name": "Jefferson", "description": null, "timestamp": null, "begin": null, "end": null, "altitudeMode": null, "tessellate": -1, "extrude": 0, "visibility": -1, "drawOrder": null, "icon": null }, "geometry": { "type": "Point", "coordinates": [ -122.210295435863003, 37.780186631095802, 0.0 ] } },
{ "type": "Feature", "properties": { "Name": "Joaquin Miller Park", "description": null, "timestamp": null, "begin": null, "end": null, "altitudeMode": null, "tessellate": -1, "extrude": 0, "visibility": -1, "drawOrder": null, "icon": null }, "geometry": { "type": "Point", "coordinates": [ -122.183463285779993, 37.8134885827251, 0.0 ] } },
{ "type": "Feature", "properties": { "Name": "Lake Merritt", "description": null, "timestamp": null, "begin": null, "end": null, "altitudeMode": null, "tessellate": -1, "extrude": 0, "visibility": -1, "drawOrder": null, "icon": null }, "geometry": { "type": "Point", "coordinates": [ -122.256957442491, 37.803788160255202, 0.0 ] } },
{ "type": "Feature", "properties": { "Name": "Lakeshore", "description": null, "timestamp": null, "begin": null, "end": null, "altitudeMode": null, "tessellate": -1, "extrude": 0, "visibility": -1, "drawOrder": null, "icon": null }, "geometry": { "type": "Point", "coordinates": [ -122.241528841969995, 37.814838413528598, 0.0 ] } },
{ "type": "Feature", "properties": { "Name": "Lakewide", "description": null, "timestamp": null, "begin": null, "end": null, "altitudeMode": null, "tessellate": -1, "extrude": 0, "visibility": -1, "drawOrder": null, "icon": null }, "geometry": { "type": "Point", "coordinates": [ -122.262556665763995, 37.806128451637598, 0.0 ] } },
{ "type": "Feature", "properties": { "Name": "Las Palmas", "description": null, "timestamp": null, "begin": null, "end": null, "altitudeMode": null, "tessellate": -1, "extrude": 0, "visibility": -1, "drawOrder": null, "icon": null }, "geometry": { "type": "Point", "coordinates": [ -122.156376217018007, 37.744112511799898, 0.0 ] } },
{ "type": "Feature", "properties": { "Name": "Laurel", "description": null, "timestamp": null, "begin": null, "end": null, "altitudeMode": null, "tessellate": -1, "extrude": 0, "visibility": -1, "drawOrder": null, "icon": null }, "geometry": { "type": "Point", "coordinates": [ -122.201543135787006, 37.791929093203798, 0.0 ] } },
{ "type": "Feature", "properties": { "Name": "Leona Heights", "description": null, "timestamp": null, "begin": null, "end": null, "altitudeMode": null, "tessellate": -1, "extrude": 0, "visibility": -1, "drawOrder": null, "icon": null }, "geometry": { "type": "Point", "coordinates": [ -122.175467137675, 37.788034273656798, 0.0 ] } },
{ "type": "Feature", "properties": { "Name": "Lincoln Highlands", "description": null, "timestamp": null, "begin": null, "end": null, "altitudeMode": null, "tessellate": -1, "extrude": 0, "visibility": -1, "drawOrder": null, "icon": null }, "geometry": { "type": "Point", "coordinates": [ -122.200302627436002, 37.804771200511198, 0.0 ] } },
{ "type": "Feature", "properties": { "Name": "Lockwood Tevis", "description": null, "timestamp": null, "begin": null, "end": null, "altitudeMode": null, "tessellate": -1, "extrude": 0, "visibility": -1, "drawOrder": null, "icon": null }, "geometry": { "type": "Point", "coordinates": [ -122.201722215672007, 37.761292961295503, 0.0 ] } },
{ "type": "Feature", "properties": { "Name": "Longfellow", "description": null, "timestamp": null, "begin": null, "end": null, "altitudeMode": null, "tessellate": -1, "extrude": 0, "visibility": -1, "drawOrder": null, "icon": null }, "geometry": { "type": "Point", "coordinates": [ -122.272252266406994, 37.830928837602798, 0.0 ] } },
{ "type": "Feature", "properties": { "Name": "Lynn-Highland Park", "description": null, "timestamp": null, "begin": null, "end": null, "altitudeMode": null, "tessellate": -1, "extrude": 0, "visibility": -1, "drawOrder": null, "icon": null }, "geometry": { "type": "Point", "coordinates": [ -122.233452953633005, 37.799645764977797, 0.0 ] } },
{ "type": "Feature", "properties": { "Name": "Maxwell Park", "description": null, "timestamp": null, "begin": null, "end": null, "altitudeMode": null, "tessellate": -1, "extrude": 0, "visibility": -1, "drawOrder": null, "icon": null }, "geometry": { "type": "Point", "coordinates": [ -122.194928296862997, 37.780313910589697, 0.0 ] } },
{ "type": "Feature", "properties": { "Name": "McClymonds", "description": null, "timestamp": null, "begin": null, "end": null, "altitudeMode": null, "tessellate": -1, "extrude": 0, "visibility": -1, "drawOrder": null, "icon": null }, "geometry": { "type": "Point", "coordinates": [ -122.281343437283994, 37.818096069944701, 0.0 ] } },
{ "type": "Feature", "properties": { "Name": "Melrose", "description": null, "timestamp": null, "begin": null, "end": null, "altitudeMode": null, "tessellate": -1, "extrude": 0, "visibility": -1, "drawOrder": null, "icon": null }, "geometry": { "type": "Point", "coordinates": [ -122.211492477519002, 37.768069374601197, 0.0 ] } },
{ "type": "Feature", "properties": { "Name": "Merritt", "description": null, "timestamp": null, "begin": null, "end": null, "altitudeMode": null, "tessellate": -1, "extrude": 0, "visibility": -1, "drawOrder": null, "icon": null }, "geometry": { "type": "Point", "coordinates": [ -122.255526939093997, 37.798100019823401, 0.0 ] } },
{ "type": "Feature", "properties": { "Name": "Merriwood", "description": null, "timestamp": null, "begin": null, "end": null, "altitudeMode": null, "tessellate": -1, "extrude": 0, "visibility": -1, "drawOrder": null, "icon": null }, "geometry": { "type": "Point", "coordinates": [ -122.213591716465004, 37.8466606033072, 0.0 ] } },
{ "type": "Feature", "properties": { "Name": "Mills College", "description": null, "timestamp": null, "begin": null, "end": null, "altitudeMode": null, "tessellate": -1, "extrude": 0, "visibility": -1, "drawOrder": null, "icon": null }, "geometry": { "type": "Point", "coordinates": [ -122.182180716179005, 37.780910226416999, 0.0 ] } },
{ "type": "Feature", "properties": { "Name": "Millsmont", "description": null, "timestamp": null, "begin": null, "end": null, "altitudeMode": null, "tessellate": -1, "extrude": 0, "visibility": -1, "drawOrder": null, "icon": null }, "geometry": { "type": "Point", "coordinates": [ -122.174171876971997, 37.775592980370099, 0.0 ] } },
{ "type": "Feature", "properties": { "Name": "Montclair", "description": null, "timestamp": null, "begin": null, "end": null, "altitudeMode": null, "tessellate": -1, "extrude": 0, "visibility": -1, "drawOrder": null, "icon": null }, "geometry": { "type": "Point", "coordinates": [ -122.210606219919001, 37.829606937935701, 0.0 ] } },
{ "type": "Feature", "properties": { "Name": "Montclair Business", "description": null, "timestamp": null, "begin": null, "end": null, "altitudeMode": null, "tessellate": -1, "extrude": 0, "visibility": -1, "drawOrder": null, "icon": null }, "geometry": { "type": "Point", "coordinates": [ -122.209358143943007, 37.826032896838498, 0.0 ] } },
{ "type": "Feature", "properties": { "Name": "Mosswood", "description": null, "timestamp": null, "begin": null, "end": null, "altitudeMode": null, "tessellate": -1, "extrude": 0, "visibility": -1, "drawOrder": null, "icon": null }, "geometry": { "type": "Point", "coordinates": [ -122.263033737059999, 37.826077600080801, 0.0 ] } },
{ "type": "Feature", "properties": { "Name": "Mountain View Cemetery", "description": null, "timestamp": null, "begin": null, "end": null, "altitudeMode": null, "tessellate": -1, "extrude": 0, "visibility": -1, "drawOrder": null, "icon": null }, "geometry": { "type": "Point", "coordinates": [ -122.240208010803997, 37.835154155204499, 0.0 ] } },
{ "type": "Feature", "properties": { "Name": "North Kennedy Tract", "description": null, "timestamp": null, "begin": null, "end": null, "altitudeMode": null, "tessellate": -1, "extrude": 0, "visibility": -1, "drawOrder": null, "icon": null }, "geometry": { "type": "Point", "coordinates": [ -122.232738577012995, 37.777044121062801, 0.0 ] } },
{ "type": "Feature", "properties": { "Name": "North Stonehurst", "description": null, "timestamp": null, "begin": null, "end": null, "altitudeMode": null, "tessellate": -1, "extrude": 0, "visibility": -1, "drawOrder": null, "icon": null }, "geometry": { "type": "Point", "coordinates": [ -122.172742779383, 37.738576890695903, 0.0 ] } },
{ "type": "Feature", "properties": { "Name": "Northgate", "description": null, "timestamp": null, "begin": null, "end": null, "altitudeMode": null, "tessellate": -1, "extrude": 0, "visibility": -1, "drawOrder": null, "icon": null }, "geometry": { "type": "Point", "coordinates": [ -122.268608187156005, 37.814074230796699, 0.0 ] } },
{ "type": "Feature", "properties": { "Name": "Oak Center", "description": null, "timestamp": null, "begin": null, "end": null, "altitudeMode": null, "tessellate": -1, "extrude": 0, "visibility": -1, "drawOrder": null, "icon": null }, "geometry": { "type": "Point", "coordinates": [ -122.285278004055002, 37.809295414379001, 0.0 ] } },
{ "type": "Feature", "properties": { "Name": "Oak Tree", "description": null, "timestamp": null, "begin": null, "end": null, "altitudeMode": null, "tessellate": -1, "extrude": 0, "visibility": -1, "drawOrder": null, "icon": null }, "geometry": { "type": "Point", "coordinates": [ -122.231107343348995, 37.782951303329398, 0.0 ] } },
{ "type": "Feature", "properties": { "Name": "Oakland Airport", "description": null, "timestamp": null, "begin": null, "end": null, "altitudeMode": null, "tessellate": -1, "extrude": 0, "visibility": -1, "drawOrder": null, "icon": null }, "geometry": { "type": "Point", "coordinates": [ -122.215091999131005, 37.724827592481901, 0.0 ] } },
{ "type": "Feature", "properties": { "Name": "Oakland Airport", "description": null, "timestamp": null, "begin": null, "end": null, "altitudeMode": null, "tessellate": -1, "extrude": 0, "visibility": -1, "drawOrder": null, "icon": null }, "geometry": { "type": "Point", "coordinates": [ -122.213061509550002, 37.7564753660685, 0.0 ] } },
{ "type": "Feature", "properties": { "Name": "Oakland Ave-Harrison St", "description": null, "timestamp": null, "begin": null, "end": null, "altitudeMode": null, "tessellate": -1, "extrude": 0, "visibility": -1, "drawOrder": null, "icon": null }, "geometry": { "type": "Point", "coordinates": [ -122.258640336341003, 37.818074499896397, 0.0 ] } },
{ "type": "Feature", "properties": { "Name": "Oakmore", "description": null, "timestamp": null, "begin": null, "end": null, "altitudeMode": null, "tessellate": -1, "extrude": 0, "visibility": -1, "drawOrder": null, "icon": null }, "geometry": { "type": "Point", "coordinates": [ -122.208527891933002, 37.811568872834897, 0.0 ] } },
{ "type": "Feature", "properties": { "Name": "Old City-Produce And Waterfront", "description": null, "timestamp": null, "begin": null, "end": null, "altitudeMode": null, "tessellate": -1, "extrude": 0, "visibility": -1, "drawOrder": null, "icon": null }, "geometry": { "type": "Point", "coordinates": [ -122.277934087662999, 37.798800236214902, 0.0 ] } },
{ "type": "Feature", "properties": { "Name": "Panoramic Hill", "description": null, "timestamp": null, "begin": null, "end": null, "altitudeMode": null, "tessellate": -1, "extrude": 0, "visibility": -1, "drawOrder": null, "icon": null }, "geometry": { "type": "Point", "coordinates": [ -122.234326209391995, 37.872542364375903, 0.0 ] } },
{ "type": "Feature", "properties": { "Name": "Paradise Park", "description": null, "timestamp": null, "begin": null, "end": null, "altitudeMode": null, "tessellate": -1, "extrude": 0, "visibility": -1, "drawOrder": null, "icon": null }, "geometry": { "type": "Point", "coordinates": [ -122.281745985588003, 37.845529908886, 0.0 ] } },
{ "type": "Feature", "properties": { "Name": "Patten", "description": null, "timestamp": null, "begin": null, "end": null, "altitudeMode": null, "tessellate": -1, "extrude": 0, "visibility": -1, "drawOrder": null, "icon": null }, "geometry": { "type": "Point", "coordinates": [ -122.218906840149003, 37.789208377921497, 0.0 ] } },
{ "type": "Feature", "properties": { "Name": "Peralta-Hacienda", "description": null, "timestamp": null, "begin": null, "end": null, "altitudeMode": null, "tessellate": -1, "extrude": 0, "visibility": -1, "drawOrder": null, "icon": null }, "geometry": { "type": "Point", "coordinates": [ -122.216751873980002, 37.786812931489301, 0.0 ] } },
{ "type": "Feature", "properties": { "Name": "Peralta-Laney", "description": null, "timestamp": null, "begin": null, "end": null, "altitudeMode": null, "tessellate": -1, "extrude": 0, "visibility": -1, "drawOrder": null, "icon": null }, "geometry": { "type": "Point", "coordinates": [ -122.261179919122995, 37.794127387567201, 0.0 ] } },
{ "type": "Feature", "properties": { "Name": "Piedmont", "description": null, "timestamp": null, "begin": null, "end": null, "altitudeMode": null, "tessellate": -1, "extrude": 0, "visibility": -1, "drawOrder": null, "icon": null }, "geometry": { "type": "Point", "coordinates": [ -122.230039087554999, 37.822563154049298, 0.0 ] } },
{ "type": "Feature", "properties": { "Name": "Piedmont Avenue", "description": null, "timestamp": null, "begin": null, "end": null, "altitudeMode": null, "tessellate": -1, "extrude": 0, "visibility": -1, "drawOrder": null, "icon": null }, "geometry": { "type": "Point", "coordinates": [ -122.251227897646004, 37.827614568794203, 0.0 ] } },
{ "type": "Feature", "properties": { "Name": "Piedmont Pines", "description": null, "timestamp": null, "begin": null, "end": null, "altitudeMode": null, "tessellate": -1, "extrude": 0, "visibility": -1, "drawOrder": null, "icon": null }, "geometry": { "type": "Point", "coordinates": [ -122.194627112093002, 37.8217632061369, 0.0 ] } },
{ "type": "Feature", "properties": { "Name": "Pill Hill", "description": null, "timestamp": null, "begin": null, "end": null, "altitudeMode": null, "tessellate": -1, "extrude": 0, "visibility": -1, "drawOrder": null, "icon": null }, "geometry": { "type": "Point", "coordinates": [ -122.265724660703, 37.819920292499297, 0.0 ] } },
{ "type": "Feature", "properties": { "Name": "Prescott", "description": null, "timestamp": null, "begin": null, "end": null, "altitudeMode": null, "tessellate": -1, "extrude": 0, "visibility": -1, "drawOrder": null, "icon": null }, "geometry": { "type": "Point", "coordinates": [ -122.304910243565004, 37.817518244041402, 0.0 ] } },
{ "type": "Feature", "properties": { "Name": "Produce And Waterfront", "description": null, "timestamp": null, "begin": null, "end": null, "altitudeMode": null, "tessellate": -1, "extrude": 0, "visibility": -1, "drawOrder": null, "icon": null }, "geometry": { "type": "Point", "coordinates": [ -122.264946146330004, 37.791347842695899, 0.0 ] } },
{ "type": "Feature", "properties": { "Name": "Ralph Bunche", "description": null, "timestamp": null, "begin": null, "end": null, "altitudeMode": null, "tessellate": -1, "extrude": 0, "visibility": -1, "drawOrder": null, "icon": null }, "geometry": { "type": "Point", "coordinates": [ -122.282313230973003, 37.813376059952603, 0.0 ] } },
{ "type": "Feature", "properties": { "Name": "Rancho San Antonio", "description": null, "timestamp": null, "begin": null, "end": null, "altitudeMode": null, "tessellate": -1, "extrude": 0, "visibility": -1, "drawOrder": null, "icon": null }, "geometry": { "type": "Point", "coordinates": [ -122.239028509641997, 37.788810438328397, 0.0 ] } },
{ "type": "Feature", "properties": { "Name": "Redwood Heights", "description": null, "timestamp": null, "begin": null, "end": null, "altitudeMode": null, "tessellate": -1, "extrude": 0, "visibility": -1, "drawOrder": null, "icon": null }, "geometry": { "type": "Point", "coordinates": [ -122.186832510290998, 37.7934949022872, 0.0 ] } },
{ "type": "Feature", "properties": { "Name": "Reservoir Hill-Meadow Brook", "description": null, "timestamp": null, "begin": null, "end": null, "altitudeMode": null, "tessellate": -1, "extrude": 0, "visibility": -1, "drawOrder": null, "icon": null }, "geometry": { "type": "Point", "coordinates": [ -122.226451120950998, 37.791208404841797, 0.0 ] } },
{ "type": "Feature", "properties": { "Name": "Rockridge", "description": null, "timestamp": null, "begin": null, "end": null, "altitudeMode": null, "tessellate": -1, "extrude": 0, "visibility": -1, "drawOrder": null, "icon": null }, "geometry": { "type": "Point", "coordinates": [ -122.249273676640001, 37.846374501869398, 0.0 ] } },
{ "type": "Feature", "properties": { "Name": "Saint Elizabeth", "description": null, "timestamp": null, "begin": null, "end": null, "altitudeMode": null, "tessellate": -1, "extrude": 0, "visibility": -1, "drawOrder": null, "icon": null }, "geometry": { "type": "Point", "coordinates": [ -122.220006220287999, 37.778262756660503, 0.0 ] } },
{ "type": "Feature", "properties": { "Name": "San Pablo Gateway", "description": null, "timestamp": null, "begin": null, "end": null, "altitudeMode": null, "tessellate": -1, "extrude": 0, "visibility": -1, "drawOrder": null, "icon": null }, "geometry": { "type": "Point", "coordinates": [ -122.273854380654996, 37.809242353116701, 0.0 ] } },
{ "type": "Feature", "properties": { "Name": "Santa Fe", "description": null, "timestamp": null, "begin": null, "end": null, "altitudeMode": null, "tessellate": -1, "extrude": 0, "visibility": -1, "drawOrder": null, "icon": null }, "geometry": { "type": "Point", "coordinates": [ -122.273506433535005, 37.841685201570698, 0.0 ] } },
{ "type": "Feature", "properties": { "Name": "Sausal Creek", "description": null, "timestamp": null, "begin": null, "end": null, "altitudeMode": null, "tessellate": -1, "extrude": 0, "visibility": -1, "drawOrder": null, "icon": null }, "geometry": { "type": "Point", "coordinates": [ -122.221675925778996, 37.791351397160099, 0.0 ] } },
{ "type": "Feature", "properties": { "Name": "School", "description": null, "timestamp": null, "begin": null, "end": null, "altitudeMode": null, "tessellate": -1, "extrude": 0, "visibility": -1, "drawOrder": null, "icon": null }, "geometry": { "type": "Point", "coordinates": [ -122.215014861878998, 37.795358829596701, 0.0 ] } },
{ "type": "Feature", "properties": { "Name": "Seminary", "description": null, "timestamp": null, "begin": null, "end": null, "altitudeMode": null, "tessellate": -1, "extrude": 0, "visibility": -1, "drawOrder": null, "icon": null }, "geometry": { "type": "Point", "coordinates": [ -122.196144779258006, 37.767741721268301, 0.0 ] } },
{ "type": "Feature", "properties": { "Name": "Sequoyah", "description": null, "timestamp": null, "begin": null, "end": null, "altitudeMode": null, "tessellate": -1, "extrude": 0, "visibility": -1, "drawOrder": null, "icon": null }, "geometry": { "type": "Point", "coordinates": [ -122.139445630839006, 37.764245295334703, 0.0 ] } },
{ "type": "Feature", "properties": { "Name": "Shafter", "description": null, "timestamp": null, "begin": null, "end": null, "altitudeMode": null, "tessellate": -1, "extrude": 0, "visibility": -1, "drawOrder": null, "icon": null }, "geometry": { "type": "Point", "coordinates": [ -122.256674764962, 37.839526164829799, 0.0 ] } },
{ "type": "Feature", "properties": { "Name": "Sheffield Village", "description": null, "timestamp": null, "begin": null, "end": null, "altitudeMode": null, "tessellate": -1, "extrude": 0, "visibility": -1, "drawOrder": null, "icon": null }, "geometry": { "type": "Point", "coordinates": [ -122.136722047871999, 37.735054662801197, 0.0 ] } },
{ "type": "Feature", "properties": { "Name": "Shepherd Canyon", "description": null, "timestamp": null, "begin": null, "end": null, "altitudeMode": null, "tessellate": -1, "extrude": 0, "visibility": -1, "drawOrder": null, "icon": null }, "geometry": { "type": "Point", "coordinates": [ -122.197109908917, 37.829899426494499, 0.0 ] } },
{ "type": "Feature", "properties": { "Name": "Skyline-Hillcrest Estates", "description": null, "timestamp": null, "begin": null, "end": null, "altitudeMode": null, "tessellate": -1, "extrude": 0, "visibility": -1, "drawOrder": null, "icon": null }, "geometry": { "type": "Point", "coordinates": [ -122.157404322968006, 37.793323823439202, 0.0 ] } },
{ "type": "Feature", "properties": { "Name": "Sobrante Park", "description": null, "timestamp": null, "begin": null, "end": null, "altitudeMode": null, "tessellate": -1, "extrude": 0, "visibility": -1, "drawOrder": null, "icon": null }, "geometry": { "type": "Point", "coordinates": [ -122.177824451695997, 37.729135679058501, 0.0 ] } },
{ "type": "Feature", "properties": { "Name": "South Kennedy Tract", "description": null, "timestamp": null, "begin": null, "end": null, "altitudeMode": null, "tessellate": -1, "extrude": 0, "visibility": -1, "drawOrder": null, "icon": null }, "geometry": { "type": "Point", "coordinates": [ -122.230490696852996, 37.7724555698776, 0.0 ] } },
{ "type": "Feature", "properties": { "Name": "South Prescott", "description": null, "timestamp": null, "begin": null, "end": null, "altitudeMode": null, "tessellate": -1, "extrude": 0, "visibility": -1, "drawOrder": null, "icon": null }, "geometry": { "type": "Point", "coordinates": [ -122.301559267122997, 37.804817272901403, 0.0 ] } },
{ "type": "Feature", "properties": { "Name": "South Stonehurst", "description": null, "timestamp": null, "begin": null, "end": null, "altitudeMode": null, "tessellate": -1, "extrude": 0, "visibility": -1, "drawOrder": null, "icon": null }, "geometry": { "type": "Point", "coordinates": [ -122.176234615978004, 37.734557372358204, 0.0 ] } },
{ "type": "Feature", "properties": { "Name": "Temescal", "description": null, "timestamp": null, "begin": null, "end": null, "altitudeMode": null, "tessellate": -1, "extrude": 0, "visibility": -1, "drawOrder": null, "icon": null }, "geometry": { "type": "Point", "coordinates": [ -122.260385723702001, 37.832801299153402, 0.0 ] } },
{ "type": "Feature", "properties": { "Name": "Toler Heights", "description": null, "timestamp": null, "begin": null, "end": null, "altitudeMode": null, "tessellate": -1, "extrude": 0, "visibility": -1, "drawOrder": null, "icon": null }, "geometry": { "type": "Point", "coordinates": [ -122.157544968349995, 37.754960283053798, 0.0 ] } },
{ "type": "Feature", "properties": { "Name": "Trestle Glen", "description": null, "timestamp": null, "begin": null, "end": null, "altitudeMode": null, "tessellate": -1, "extrude": 0, "visibility": -1, "drawOrder": null, "icon": null }, "geometry": { "type": "Point", "coordinates": [ -122.234923587265996, 37.808834584633701, 0.0 ] } },
{ "type": "Feature", "properties": { "Name": "Tuxedo", "description": null, "timestamp": null, "begin": null, "end": null, "altitudeMode": null, "tessellate": -1, "extrude": 0, "visibility": -1, "drawOrder": null, "icon": null }, "geometry": { "type": "Point", "coordinates": [ -122.228535485934998, 37.796919985486298, 0.0 ] } },
{ "type": "Feature", "properties": { "Name": "Upper Dimond", "description": null, "timestamp": null, "begin": null, "end": null, "altitudeMode": null, "tessellate": -1, "extrude": 0, "visibility": -1, "drawOrder": null, "icon": null }, "geometry": { "type": "Point", "coordinates": [ -122.208738024547998, 37.800512077897501, 0.0 ] } },
{ "type": "Feature", "properties": { "Name": "Upper Laurel", "description": null, "timestamp": null, "begin": null, "end": null, "altitudeMode": null, "tessellate": -1, "extrude": 0, "visibility": -1, "drawOrder": null, "icon": null }, "geometry": { "type": "Point", "coordinates": [ -122.194372962181006, 37.791539034556898, 0.0 ] } },
{ "type": "Feature", "properties": { "Name": "Upper Peralta Creek-Bartlett", "description": null, "timestamp": null, "begin": null, "end": null, "altitudeMode": null, "tessellate": -1, "extrude": 0, "visibility": -1, "drawOrder": null, "icon": null }, "geometry": { "type": "Point", "coordinates": [ -122.209806907911997, 37.792456023973102, 0.0 ] } },
{ "type": "Feature", "properties": { "Name": "Upper Rockridge", "description": null, "timestamp": null, "begin": null, "end": null, "altitudeMode": null, "tessellate": -1, "extrude": 0, "visibility": -1, "drawOrder": null, "icon": null }, "geometry": { "type": "Point", "coordinates": [ -122.233759326078001, 37.842328709755598, 0.0 ] } },
{ "type": "Feature", "properties": { "Name": "Waverly", "description": null, "timestamp": null, "begin": null, "end": null, "altitudeMode": null, "tessellate": -1, "extrude": 0, "visibility": -1, "drawOrder": null, "icon": null }, "geometry": { "type": "Point", "coordinates": [ -122.264000299580005, 37.812780225082001, 0.0 ] } },
{ "type": "Feature", "properties": { "Name": "Webster", "description": null, "timestamp": null, "begin": null, "end": null, "altitudeMode": null, "tessellate": -1, "extrude": 0, "visibility": -1, "drawOrder": null, "icon": null }, "geometry": { "type": "Point", "coordinates": [ -122.173346762346995, 37.754338440910303, 0.0 ] } },
{ "type": "Feature", "properties": { "Name": "Woodland", "description": null, "timestamp": null, "begin": null, "end": null, "altitudeMode": null, "tessellate": -1, "extrude": 0, "visibility": -1, "drawOrder": null, "icon": null }, "geometry": { "type": "Point", "coordinates": [ -122.186313368119997, 37.750629086186599, 0.0 ] } },
{ "type": "Feature", "properties": { "Name": "Woodminster", "description": null, "timestamp": null, "begin": null, "end": null, "altitudeMode": null, "tessellate": -1, "extrude": 0, "visibility": -1, "drawOrder": null, "icon": null }, "geometry": { "type": "Point", "coordinates": [ -122.186819095865005, 37.805734534655699, 0.0 ] } }
]
}
